[
  {
    "id": "prize-types",
    "prizes": [
      {
        "display_name": "Red Bull",
        "instance_name": "a can of Red Bull",
        "name": "redbull-can",
        "redeem_type": "in-store",
        "image_url": "https://uoa-bs-maps.s3-ap-southeast-2.amazonaws.com/redbull-can.png",
        "redeem_info": "Visit the Shwoop HQ to collect your prize.",
        "description": "A perfect 250ml refresher to keep you focused and awake during the study season."
      },
      {
        "display_name": "Laneway Coffee",
        "instance_name": "a cup of Laneway Coffee",
        "name": "laneway-coffee",
        "redeem_type": "in-store",
        "image_url": "https://uoa-bs-maps.s3-ap-southeast-2.amazonaws.com/laneway-coffee.png",
        "redeem_info": "Visit the store and show this page to the Cashier. If you are the cashier, press the button twice to delete the prize.",
        "description": "A beautiful cup of Laneway brewed coffee, with stunning aromas to win you over."
      },
      {
        "display_name": "3 Lime Unlocks",
        "instance_name": "3 Lime Unlocks",
        "name": "lime-3unlocks",
        "redeem_type": "online",
        "image_url": "https://uoa-bs-maps.s3-ap-southeast-2.amazonaws.com/Lime-Logo-3.png",
        "redeem_info": "Head over to the Lime app and enter your promo code inside the wallet.",
        "description": "Get where you're going faster on a Lime.",
        "code": "QZPBA4J6"
      },
      {
        "display_name": "$30 The Market Voucher",
        "instance_name": "a $30 Voucher to The Market",
        "name": "market-30voucher",
        "redeem_type": "online",
        "image_url": "https://uoa-bs-maps.s3-ap-southeast-2.amazonaws.com/Noel-Leeming-Logo.png",
        "redeem_info": "Next time you make a purchase at themarket.com enter this code during checkout for $30 off.",
        "description": "Enjoy $30 off your next purchase at The Market.",
        "code": "TMAUT30U7W6"
      }
    ]
  },
  {
    "id": "maps",
    "maps": [
      {
        "name": "aut",
        "area": [
          {
            "latitude": -36.8528,
            "longitude": 174.7656
          },
          {
            "latitude": -36.8543,
            "longitude": 174.7677
          }
        ]
      },
      {
        "name": "uoa",
        "area": [
          {
            "latitude": -36.8507,
            "longitude": 174.7673
          },
          {
            "latitude": -36.8535,
            "longitude": 174.7722
          }
        ]
      },
      {
        "name": "auckland",
        "area": [
          {
            "latitude": -36.8395,
            "longitude": 174.7088
          },
          {
            "latitude": -36.9353,
            "longitude": 174.8248
          }
        ]
      }
    ]
  },
  {
    "id": "surveys",
    "surveys": [],
    "prize_given": {
      "prize": "redbull-can",
      "surveys_to_prize": 5
    }
  }
]